(0)linux time (ms),    (1)uptime  (ms),      (2)drive mode,(3)mpc step counter,(4)mpc origin latitude  (deg),(5)mpc origin longitude  (deg),(6)closest trajectory point index to robot,(7)mpc error x (W;E)  (m),(8)mpc error y (W;E)  (m),(9)abs mpc error (m),(10)input [x] for mhe (m),(11)input [y] for mhe (m),(12)input [speed] for mhe (m/s),(13)input [vyaw] for mhe (rad/s),(14)mhe output x  (m),(15)mhe output y  (m),(16)mhe output speed  (m/s),(17)mhe output yaw  (rad),(18)mpc reference heading (rad),(19)mpc turn rate command (rad/s),(20)turn rate command as PWM,(21)throttle command as PWM,(22)primary gps latitude (deg),(23)primary gps longitude (deg),(24)secondary gps latitude  (deg),(25)secondary gps longitude (deg),(26)accelerometer x (m/s^2),(27)accelerometer y (m/s^2),(28)accelerometer z (m/s^2),(29)gyro yaw rate (rad/s),(30)gyro pitch rate   (rad/s),(31)gyro roll rate (rad/s),      (32)yaw (rad),  (33)pitch   (rad),     (34)roll (rad),(35)sonar1 measurement (m),(36)ultrasonic sensor measurement (m),(37)primary gps time (s),(38)normalized turn rate command,(39)normalized throttle command,(40)speed calculation from encoder left (m/s),(41)speed calculation from encoder right (m/s),(42)front gimbal target angle (degrees from straight down),(43)left gimbal target angle  (degrees from straight down),(44)right gimbal target angle  (degrees from straight down),(45)front gimbal measured angle  (degrees from straight down),(46)left gimbal measured angle    (degrees from straight down),(47)right gimbal measured angle  (degrees from straight down),(48)internal temperature (C),(49)battery voltage (V),(50)primary gps type,(51)secondary gps type,    (52)MPC R value, (53)MPC Q[0] value,

1529450815479, 846479, AUTO, 4, 40.1021051000, -88.2268110000, 10, 0.1552694728, -0.4297072388, 0.4568992451, 1.6498674173, -0.4098459674, 0.5945666432, 0.0000000000, 1.5874019982, -0.4681025168, 1.0000000000, 6.2429352566, -0.0268034432, 0.1000000000, 1550, 1767, 40.1021014142, -88.2268303982, 40.1021331667, -88.2268780000, 0.0000000000, 0.0000000000, 0.0000000000, 0.0000000000, 0.0000000000, 0.0000000000, 0.0000000000, 0.0000000000, 0.0000000000, 0.0000000000, 0.0000000000, 232648, 0.1000000238, 0.5357142687, 0.5391104817, 0.6231683493, 30.0000000000, 0.0000000000, 5.0000000000, 112.6817016602, 160.3008728027, 156.6084594727, 38.4509963989, 15.7658491135, -11.4289063606, -2.4079148993, 0.0000000000, 0.0000000000, 0.0000000492, 0.0000000000
1529450815530, 846530, AUTO, 5, 40.1021051000, -88.2268110000, 11, 0.0841025643, -0.4095532228, 0.4180993705, 1.6498674173, -0.4098459674, 0.5819671154, 0.0000000000, 1.6753609259, -0.4522146428, 1.0000000000, 6.2693056134, -0.0268034432, 0.1000000000, 1550, 1767, 40.1021014142, -88.2268303982, 40.1021331667, -88.2268780000, 0.0000000000, 0.0000000000, 0.0000000000, 0.0000000000, 0.0000000000, 0.0000000000, 0.0000000000, 0.0000000000, 0.0000000000, 0.0000000000, 0.0000000000, 232648, 0.1000000238, 0.5357142687, 0.5300977230, 0.6338365078, 30.0000000000, 0.0000000000, 5.0000000000, 140.5019836426, 169.1498718262, 142.4118499756, 38.4509963989, 15.7658491135, -11.4721908647, -2.3909495435, 0.0000000000, 0.0000000000, 0.0000000180, 0.0000000000
1529450815580, 846580, AUTO, 7, 40.1021051000, -88.2268110000, 11, 0.0841025643, -0.4095532228, 0.4180993705, 1.6498674173, -0.4098459674, 0.5810474753, 0.0000000000, 1.6753609259, -0.4522146428, 1.0000000000, 6.2693056134, -0.0268034432, 0.1000000000, 1550, 1767, 40.1021014142, -88.2268303982, 40.1021331667, -88.2268780000, 0.0000000000, 0.0000000000, 0.0000000000, 0.0000000000, 0.0000000000, 0.0000000000, 0.0000000000, 0.0000000000, 0.0000000000, 0.0000000000, 0.0000000000, 232648, 0.1000000238, 0.5357142687, 0.5832546949, 0.5788402557, 30.0000000000, 0.0000000000, 5.0000000000, 164.7572021484, 143.6214141846, 147.4411315918, 38.4509963989, 15.7658491135, -11.4721908647, -2.3909495435, 0.0000000000, 0.0000000000, 0.0000000772, 0.0000000000
1529450815631, 846631, AUTO, 8, 40.1021051000, -88.2268110000, 11, 0.0841025643, -0.4095532228, 0.4180993705, 1.6498674173, -0.4098459674, 0.5944746733, 0.0000000000, 1.6753609259, -0.4522146428, 1.0000000000, 6.2693056134, -0.0268034432, 0.1000000000, 1550, 1767, 40.1021014142, -88.2268303982, 40.1021331667, -88.2268780000, 0.0000000000, 0.0000000000, 0.0000000000, 0.0000000000, 0.0000000000, 0.0000000000, 0.0000000000, 0.0000000000, 0.0000000000, 0.0000000000, 0.0000000000, 232648, 0.1000000238, 0.5357142687, 0.6283184886, 0.5606307983, 30.0000000000, 0.0000000000, 5.0000000000, 140.7566375732, 142.2845153809, 151.5791625977, 38.4509963989, 15.7658491135, -11.4721908647, -2.3909495435, 0.0000000000, 0.0000000000, 0.0000000026, 0.0000000000
1529450815681, 846681, AUTO, 9, 40.1021051000, -88.2268110000, 11, -0.0009880177, -0.3872782178, 0.3872794781, 1.6787569986, -0.3978554483, 0.5921754837, 0.0000000000, 1.7493961800, -0.4342057797, 1.0000000000, 6.2966931924, -0.0268034432, 0.1000000000, 1550, 1767, 40.1021015220, -88.2268307378, 40.1021331667, -88.2268780000, 0.0000000000, 0.0000000000, 0.0000000000, 0.0000000000, 0.0000000000, 0.0000000000, 0.0000000000, 0.0000000000, 0.0000000000, 0.0000000000, 0.0000000000, 232648, 0.1000000238, 0.5357142687, 0.6470797658, 0.5372712016, 30.0000000000, 0.0000000000, 5.0000000000, 150.4969177246, 155.7808685303, 146.4862060547, 38.4509963989, 15.7658491135, -11.4819569538, -2.3870064469, 0.0000000000, 0.0000000000, 0.0000000018, 0.0000000000
1529450815732, 846732, AUTO, 10, 40.1021051000, -88.2268110000, 11, 0.0584830449, -0.3717998357, 0.3763713384, 1.7036916313, -0.3967434989, 0.6035794020, 0.0000000000, 1.8088672426, -0.4187273976, 0.9927522939, 6.3191838580, -0.0268034432, 0.1000000000, 1550, 1767, 40.1021015320, -88.2268310310, 40.1021331667, -88.2268780000, 0.0000000000, 0.0000000000, 0.0000000000, 0.0000000000, 0.0000000000, 0.0000000000, 0.0000000000, 0.0000000000, 0.0000000000, 0.0000000000, 0.0000000000, 232648, 0.1000000238, 0.5357142687, 0.6743019819, 0.5328567624, 30.0000000000, 0.0000000000, 5.0000000000, 155.9718475342, 153.5526885986, 147.5684661865, 38.4509963989, 15.7658491135, -11.5493953862, -2.3682002990, 0.0000000000, 0.0000000000, 0.0000000011, 0.0000000000
1529450815782, 846782, AUTO, 11, 40.1021051000, -88.2268110000, 11, 0.0584830449, -0.3717998357, 0.3763713384, 1.7036916313, -0.3967434989, 0.6133279204, 0.0000000000, 1.8088672426, -0.4187273976, 0.9927522939, 6.3191838580, -0.0268034432, 0.1000000000, 1550, 1767, 40.1021015320, -88.2268310310, 40.1021331667, -88.2268780000, 0.0000000000, 0.0000000000, 0.0000000000, 0.0000000000, 0.0000000000, 0.0000000000, 0.0000000000, 0.0000000000, 0.0000000000, 0.0000000000, 0.0000000000, 232648, 0.1000000238, 0.5357142687, 0.7017081976, 0.5249476433, 30.0000000000, 0.0000000000, 5.0000000000, 149.8602905273, 149.9876251221, 148.7780303955, 38.9899978638, 15.7658491135, -11.5493953862, -2.3682002990, 0.0000000000, 0.0000000000, 0.0000000256, 0.0000000000
1529450815832, 846832, AUTO, 13, 40.1021051000, -88.2268110000, 12, 0.1122655270, -0.3615546944, 0.3785833404, 1.7576859518, -0.4053055077, 0.6243638992, 0.0000000000, 1.8626497247, -0.4084822563, 0.9634067857, 6.3340876586, -0.0268034432, 0.1000000000, 1550, 1767, 40.1021014550, -88.2268316658, 40.1021331667, -88.2268780000, 0.0000000000, 0.0000000000, 0.0000000000, 0.0000000000, 0.0000000000, 0.0000000000, 0.0000000000, 0.0000000000, 0.0000000000, 0.0000000000, 0.0000000000, 232648, 0.1000000238, 0.5357142687, 0.7090655565, 0.5396623015, 30.0000000000, 0.0000000000, 5.0000000000, 149.0963439941, 149.6693115234, 148.6507263184, 38.4509963989, 15.7658491135, -11.6022103667, -2.3748539351, 0.0000000000, 0.0000000000, 0.0000000064, 0.0000000000
1529450815883, 846883, AUTO, 14, 40.1021051000, -88.2268110000, 12, 0.1122655270, -0.3615546944, 0.3785833404, 1.7576859518, -0.4053055077, 0.6344803572, 0.0000000000, 1.8626497247, -0.4084822563, 0.9634067857, 6.3340876586, -0.0268034432, 0.1000000000, 1550, 1767, 40.1021014550, -88.2268316658, 40.1021331667, -88.2268780000, 0.0000000000, 0.0000000000, 0.0000000000, 0.0000000000, 0.0000000000, 0.0000000000, 0.0000000000, 0.0000000000, 0.0000000000, 0.0000000000, 0.0000000000, 232648, 0.1000000238, 0.5357142687, 0.7189980149, 0.5499626398, 30.0000000000, 0.0000000000, 5.0000000000, 148.5870513916, 149.0326995850, 149.2873382568, 38.4509963989, 15.7658491135, -11.6022103667, -2.3748539351, 0.0000000000, 0.0000000000, 0.0000000616, 0.0000000000
1529450815933, 846933, AUTO, 16, 40.1021051000, -88.2268110000, 12, 0.0087234481, -0.3484885325, 0.3485976992, 1.8338365133, -0.4034522596, 0.6427572966, 0.0000000000, 1.9182334820, -0.3996822364, 0.9327145359, 6.3466262228, -0.0268034432, 0.1000000000, 1550, 1767, 40.1021014717, -88.2268325612, 40.1021331667, -88.2268780000, 0.0000000000, 0.0000000000, 0.0000000000, 0.0000000000, 0.0000000000, 0.0000000000, 0.0000000000, 0.0000000000, 0.0000000000, 0.0000000000, 0.0000000000, 232648, 0.1000000238, 0.5357142687, 0.7427254319, 0.5427891612, 30.0000000000, 0.0000000000, 5.0000000000, 147.0591583252, 148.3960571289, 149.8602905273, 38.4509963989, 15.7658491135, -11.6411892901, -2.3743058367, 0.0000000000, 0.0000000000, 0.0000000020, 0.0000000000
1529450815984, 846984, AUTO, 17, 40.1021051000, -88.2268110000, 12, 0.0087234481, -0.3484885325, 0.3485976992, 1.8338365133, -0.4034522596, 0.6527817249, 0.0000000000, 1.9182334820, -0.3996822364, 0.9327145359, 6.3466262228, -0.0268034432, 0.1000000000, 1550, 1767, 40.1021014717, -88.2268325612, 40.1021331667, -88.2268780000, 0.0000000000, 0.0000000000, 0.0000000000, 0.0000000000, 0.0000000000, 0.0000000000, 0.0000000000, 0.0000000000, 0.0000000000, 0.0000000000, 0.0000000000, 232648, 0.1000000238, 0.5357142687, 0.7478756309, 0.5576878786, 30.0000000000, 0.0000000000, 5.0000000000, 149.0326995850, 147.5048065186, 150.1786041260, 38.4509963989, 15.7658491135, -11.6411892901, -2.3743058367, 0.0000000000, 0.0000000000, 0.0000000086, 0.0000000000
1529450816034, 847034, AUTO, 19, 40.1021051000, -88.2268110000, 12, 0.0564707891, -0.3385742366, 0.3432513128, 1.8748744650, -0.3908131027, 0.6491950154, 0.0000000000, 1.9659808230, -0.3897679405, 0.9021705370, 6.3605288018, -0.0268034432, 0.1000000000, 1550, 1767, 40.1021015853, -88.2268330437, 40.1021331667, -88.2268780000, 0.0000000000, 0.0000000000, 0.0000000000, 0.0000000000, 0.0000000000, 0.0000000000, 0.0000000000, 0.0000000000, 0.0000000000, 0.0000000000, 0.0000000000, 232649, 0.1000000238, 0.5357142687, 0.7539454103, 0.5444446206, 30.0000000000, 0.0000000000, 5.0000000000, 150.1786041260, 147.4411315918, 149.7966308594, 38.4509963989, 15.7658491135, -11.6411892901, -2.3743058367, 0.0000000000, 0.0000000000, 0.0000000246, 0.0000000000
1529450816094, 847094, AUTO, 20, 40.1021051000, -88.2268110000, 12, 0.0564707891, -0.3385742366, 0.3432513128, 1.8748744650, -0.3908131027, 0.6410099268, 0.0000000000, 1.9659808230, -0.3897679405, 0.9021705370, 6.3605288018, -0.0268034432, 0.1000000000, 1550, 1767, 40.1021015853, -88.2268330437, 40.1021331667, -88.2268780000, 0.0000000000, 0.0000000000, 0.0000000000, 0.0000000000, 0.0000000000, 0.0000000000, 0.0000000000, 0.0000000000, 0.0000000000, 0.0000000000, 0.0000000000, 232649, 0.1000000238, 0.5357142687, 0.7618545890, 0.5201653242, 30.0000000000, 0.0000000000, 5.0000000000, 151.5791625977, 148.2050781250, 149.2873382568, 38.4509963989, 15.7658491135, -11.7226354726, -2.3614431784, 0.0000000000, 0.0000000000, 0.0000000153, 0.0000000000
1529450816151, 847151, AUTO, 22, 40.1021051000, -88.2268110000, 13, 0.1008543751, -0.3288326582, 0.3439513368, 1.9343405096, -0.3764504242, 0.6466199160, 0.0000000000, 2.0103644090, -0.3800263621, 0.8714474270, 6.3723392498, -0.0268034432, 0.0862416092, 1543, 1767, 40.1021017145, -88.2268337428, 40.1021331667, -88.2268780000, 0.0000000000, 0.0000000000, 0.0000000000, 0.0000000000, 0.0000000000, 0.0000000000, 0.0000000000, 0.0000000000, 0.0000000000, 0.0000000000, 0.0000000000, 232649, 0.0862416029, 0.5357142687, 0.7655332685, 0.5277066231, 30.0000000000, 0.0000000000, 5.0000000000, 149.2873382568, 148.8417053223, 149.3509979248, 38.4509963989, 15.7578811646, -11.7784417377, -2.3481519574, 0.0000000000, 0.0000000000, 0.0000000015, 0.0000000000
1529450816201, 847201, AUTO, 23, 40.1021051000, -88.2268110000, 13, 0.1008543751, -0.3288326582, 0.3439513368, 1.9343405096, -0.3764504242, 0.6600471735, 0.0000000000, 2.0103644090, -0.3800263621, 0.8714474270, 6.3723392498, -0.0268034432, 0.0793727921, 1539, 1767, 40.1021017145, -88.2268337428, 40.1021331667, -88.2268780000, 0.0000000000, 0.0000000000, 0.0000000000, 0.0000000000, 0.0000000000, 0.0000000000, 0.0000000000, 0.0000000000, 0.0000000000, 0.0000000000, 0.0000000000, 232649, 0.0793727636, 0.5357142687, 0.7701316476, 0.5499626398, 30.0000000000, 0.0000000000, 5.0000000000, 145.5312805176, 149.2873382568, 148.9053649902, 38.4509963989, 15.7578811646, -11.7784417377, -2.3481519574, 0.0000000000, 0.0000000000, 0.0000000087, 0.0000000000
1529450816251, 847251, AUTO, 24, 40.1021051000, -88.2268110000, 13, -0.0139298263, -0.3171988682, 0.3175045859, 2.0018156897, -0.3644599052, 0.6491950750, 0.0000000000, 2.0547060437, -0.3726587141, 0.8435525113, 6.3763486450, -0.0268034432, 0.0789648726, 1539, 1767, 40.1021018223, -88.2268345362, 40.1021331667, -88.2268780000, 0.0000000000, 0.0000000000, 0.0000000000, 0.0000000000, 0.0000000000, 0.0000000000, 0.0000000000, 0.0000000000, 0.0000000000, 0.0000000000, 0.0000000000, 232649, 0.0789648294, 0.5357142687, 0.7407022119, 0.5576878786, 30.0000000000, 0.0000000000, 5.0000000000, 148.4597320557, 149.7329711914, 148.5233917236, 38.4509963989, 15.7578811646, -11.8224579623, -2.3401057044, 0.0000000000, 0.0000000000, 0.0000000036, 0.0000000000
1529450816318, 847318, AUTO, 25, 40.1021051000, -88.2268110000, 13, -0.0139298263, -0.3171988682, 0.3175045859, 2.0449941344, -0.3649602818, 0.6342043877, 0.0000000000, 2.0547060437, -0.3726587141, 0.8435525113, 6.3763486450, -0.0268034432, 0.0739450537, 1536, 1767, 40.1021018178, -88.2268350438, 40.1021331667, -88.2268780000, 0.0000000000, 0.0000000000, 0.0000000000, 0.0000000000, 0.0000000000, 0.0000000000, 0.0000000000, 0.0000000000, 0.0000000000, 0.0000000000, 0.0000000000, 232649, 0.0739450455, 0.5357142687, 0.7046511173, 0.5742419362, 30.0000000000, 0.0000000000, 5.0000000000, 150.0512847900, 149.8602905273, 148.4597320557, 38.4509963989, 15.7578811646, -11.8224579623, -2.3401057044, 0.0000000000, 0.0000000000, 0.0000000568, 0.0000000000
1529450816369, 847369, AUTO, 26, 40.1021051000, -88.2268110000, 13, 0.0252223614, -0.3110353205, 0.3120563060, 2.0449941344, -0.3649602818, 0.6216049194, 0.0000000000, 2.0938582314, -0.3664951664, 0.8136079380, 6.3808836698, -0.0268034432, 0.0625626892, 1531, 1767, 40.1021018178, -88.2268350438, 40.1021331667, -88.2268780000, 0.0000000000, 0.0000000000, 0.0000000000, 0.0000000000, 0.0000000000, 0.0000000000, 0.0000000000, 0.0000000000, 0.0000000000, 0.0000000000, 0.0000000000, 232649, 0.0625627041, 0.5357142687, 0.6892006993, 0.5540091991, 30.0000000000, 0.0000000000, 5.0000000000, 149.3509979248, 150.4332427979, 148.2687530518, 38.4509963989, 15.7578811646, -11.8928710464, -2.3353408567, 0.0000000000, 0.0000000000, 0.0000000066, 0.0000000000
1529450816419, 847419, AUTO, 27, 40.1021051000, -88.2268110000, 13, 0.0634550686, -0.3020795322, 0.3086723011, 2.0915746901, -0.3541373098, 0.5946586132, 0.0000000000, 2.1320909386, -0.3575393781, 0.7820724772, 6.3932321335, -0.0268034432, 0.0552182052, 1527, 1767, 40.1021019152, -88.2268355915, 40.1021336667, -88.2268836667, 0.0000000000, 0.0000000000, 0.0000000000, 0.0000000000, 0.0000000000, 0.0000000000, 0.0000000000, 0.0000000000, 0.0000000000, 0.0000000000, 0.0000000000, 232649, 0.0552182198, 0.5357142687, 0.6502066851, 0.5391104817, 30.0000000000, 0.0000000000, 5.0000000000, 149.0326995850, 150.1149291992, 147.7594451904, 38.4509963989, 15.7578811646, -11.9075561677, -2.3320552988, 0.0000000000, 0.0000000000, 0.0000000017, 0.0000000000
1529450816470, 847470, AUTO, 29, 40.1021051000, -88.2268110000, 13, 0.0634550686, -0.3020795322, 0.3086723011, 2.0915746901, -0.3541373098, 0.6107528210, 0.0000000000, 2.1320909386, -0.3575393781, 0.7820724772, 6.3932321335, -0.0268034432, 0.0357123321, 1517, 1767, 40.1021019152, -88.2268355915, 40.1021336667, -88.2268836667, 0.0000000000, 0.0000000000, 0.0000000000, 0.0000000000, 0.0000000000, 0.0000000000, 0.0000000000, 0.0000000000, 0.0000000000, 0.0000000000, 0.0000000000, 232649, 0.0357123613, 0.5357142687, 0.6498388052, 0.5716668367, 30.0000000000, 0.0000000000, 5.0000000000, 148.5233917236, 150.1149291992, 147.5684661865, 38.4509963989, 15.7578811646, -11.9075561677, -2.3320552988, 0.0000000000, 0.0000000000, 0.0000000197, 0.0000000000
1529450816520, 847520, AUTO, 30, 40.1021051000, -88.2268110000, 14, 0.1004543676, -0.2942964613, 0.3109686272, 2.1307414794, -0.3450007927, 0.6035794020, 0.0000000000, 2.1690902376, -0.3497563072, 0.7517326899, 6.4004311429, -0.0268034432, 0.0172628605, 1508, 1767, 40.1021019973, -88.2268360520, 40.1021336667, -88.2268836667, 0.0000000000, 0.0000000000, 0.0000000000, 0.0000000000, 0.0000000000, 0.0000000000, 0.0000000000, 0.0000000000, 0.0000000000, 0.0000000000, 0.0000000000, 232649, 0.0172628164, 0.5357142687, 0.6496548653, 0.5575039387, 30.0000000000, 0.0000000000, 5.0000000000, 149.5419769287, 149.6056518555, 148.8417053223, 38.4509963989, 15.7578811646, -11.9738895336, -2.3168778174, 0.0000000000, 0.0000000000, 0.0000000015, 0.0000000000
1529450816570, 847570, AUTO, 31, 40.1021051000, -88.2268110000, 14, 0.1004543676, -0.2942964613, 0.3109686272, 2.1307414794, -0.3450007927, 0.5939228535, 0.0000000000, 2.1690902376, -0.3497563072, 0.7517326899, 6.4004311429, -0.0268034432, 0.0118844019, 1505, 1767, 40.1021019973, -88.2268360520, 40.1021336667, -88.2268836667, 0.0000000000, 0.0000000000, 0.0000000000, 0.0000000000, 0.0000000000, 0.0000000000, 0.0000000000, 0.0000000000, 0.0000000000, 0.0000000000, 0.0000000000, 232649, 0.0118844509, 0.5357142687, 0.6388027668, 0.5490429401, 30.0000000000, 0.0000000000, 5.0000000000, 151.0062103271, 146.9955139160, 150.6242370605, 38.4509963989, 15.7578811646, -11.9738895336, -2.3168778174, 0.0000000000, 0.0000000000, 0.0000000121, 0.0000000000
1529450816621, 847621, AUTO, 32, 40.1021051000, -88.2268110000, 14, -0.0210327512, -0.2828909956, 0.2836718034, 2.1788246328, -0.3413498922, 0.5918995142, 0.0000000000, 2.2067289550, -0.3426169835, 0.7184529507, 6.4070439169, -0.0268034432, 0.0118280688, 1505, 1767, 40.1021020302, -88.2268366173, 40.1021336667, -88.2268836667, 0.0000000000, 0.0000000000, 0.0000000000, 0.0000000000, 0.0000000000, 0.0000000000, 0.0000000000, 0.0000000000, 0.0000000000, 0.0000000000, 0.0000000000, 232649, 0.0118280649, 0.5357142687, 0.6312614083, 0.5525376797, 30.0000000000, 0.0000000000, 5.0000000000, 149.6693115234, 148.3324127197, 148.8417053223, 38.4509963989, 15.7578811646, -11.9738895336, -2.3168778174, 0.0000000000, 0.0000000000, 0.0000000874, 0.0000000000
1529450816681, 847681, AUTO, 34, 40.1021051000, -88.2268110000, 14, -0.0210327512, -0.2828909956, 0.2836718034, 2.1788246328, -0.3413498922, 0.5994408727, 0.0000000000, 2.2067289550, -0.3426169835, 0.7184529507, 6.4070439169, -0.0268034432, 0.0002832504, 1500, 1767, 40.1021020302, -88.2268366173, 40.1021336667, -88.2268836667, 0.0000000000, 0.0000000000, 0.0000000000, 0.0000000000, 0.0000000000, 0.0000000000, 0.0000000000, 0.0000000000, 0.0000000000, 0.0000000000, 0.0000000000, 232649, 0.0002832413, 0.5357142687, 0.6415617466, 0.5573199987, 30.0000000000, 0.0000000000, 5.0000000000, 148.8417053223, 148.9690246582, 147.8231048584, 38.4509963989, 15.7578811646, -12.0244911132, -2.3120046323, 0.0000000000, 0.0000000000, 0.0000000231, 0.0000000000
1529450816732, 847732, AUTO, 35, 40.1021051000, -88.2268110000, 14, 0.0188069860, -0.2706928246, 0.2713453666, 2.2376811322, -0.3133102385, 0.6122242808, 0.0000000000, 2.2465686922, -0.3304188125, 0.6856239851, 6.4240191375, -0.0268034432, -0.0172021888, 1491, 1767, 40.1021022823, -88.2268373093, 40.1021336667, -88.2268836667, 0.0000000000, 0.0000000000, 0.0000000000, 0.0000000000, 0.0000000000, 0.0000000000, 0.0000000000, 0.0000000000, 0.0000000000, 0.0000000000, 0.0000000000, 232649, -0.0172021985, 0.5357142687, 0.6443207264, 0.5801278353, 30.0000000000, 0.0000000000, 5.0000000000, 148.9053649902, 150.2422637939, 147.4411315918, 38.4509963989, 15.7578811646, -12.0820985675, -2.2862538202, 0.0000000000, 0.0000000000, 0.0000000015, 0.0000000000
1529450816782, 847782, AUTO, 36, 40.1021051000, -88.2268110000, 14, 0.0188069860, -0.2706928246, 0.2713453666, 2.2376811322, -0.3133102385, 0.5990729928, 0.0000000000, 2.2465686922, -0.3304188125, 0.6856239851, 6.4240191375, -0.0268034432, -0.0206469105, 1489, 1767, 40.1021022823, -88.2268373093, 40.1021336667, -88.2268836667, 0.0000000000, 0.0000000000, 0.0000000000, 0.0000000000, 0.0000000000, 0.0000000000, 0.0000000000, 0.0000000000, 0.0000000000, 0.0000000000, 0.0000000000, 232649, -0.0206469297, 0.5357142687, 0.6244558692, 0.5736901164, 30.0000000000, 0.0000000000, 5.0000000000, 149.1600036621, 150.4332427979, 147.6321258545, 38.4509963989, 15.7578811646, -12.0820985675, -2.2862538202, 0.0000000000, 0.0000000000, 0.0000000281, 0.0000000000
1529450816833, 847833, AUTO, 37, 40.1021051000, -88.2268110000, 14, 0.0629779843, -0.2599351437, 0.2674556140, 2.2905414148, -0.3115125874, 0.5983372927, 0.0000000000, 2.2907396905, -0.3196611316, 0.6532728408, 6.4351097810, -0.0268034432, -0.0206879317, 1489, 1767, 40.1021022985, -88.2268379308, 40.1021336667, -88.2268836667, 0.0000000000, 0.0000000000, 0.0000000000, 0.0000000000, 0.0000000000, 0.0000000000, 0.0000000000, 0.0000000000, 0.0000000000, 0.0000000000, 0.0000000000, 232649, -0.0206879377, 0.5357142687, 0.6286863685, 0.5679882169, 30.0000000000, 0.0000000000, 5.0000000000, 149.6693115234, 149.3509979248, 148.7143707275, 38.4509963989, 15.7578811646, -12.1295810689, -2.2825655180, 0.0000000000, 0.0000000000, 0.0000000022, 0.0000000000
1529450816883, 847883, AUTO, 39, 40.1021051000, -88.2268110000, 14, 0.0629779843, -0.2599351437, 0.2674556140, 2.3543735020, -0.3016533043, 0.6283185482, 0.0000000000, 2.2907396905, -0.3196611316, 0.6532728408, 6.4351097810, -0.0268034432, -0.0341209047, 1482, 1767, 40.1021023872, -88.2268386813, 40.1021336667, -88.2268836667, 0.0000000000, 0.0000000000, 0.0000000000, 0.0000000000, 0.0000000000, 0.0000000000, 0.0000000000, 0.0000000000, 0.0000000000, 0.0000000000, 0.0000000000, 232649, -0.0341209173, 0.5357142687, 0.6434011459, 0.6132359505, 30.0000000000, 0.0000000000, 5.0000000000, 150.8152160645, 148.2050781250, 149.6056518555, 38.9899978638, 15.7578811646, -12.1643668607, -2.2776058321, 0.0000000000, 0.0000000000, 0.0000000046, 0.0000000000
1529450816933, 847933, AUTO, 40, 40.1021051000, -88.2268110000, 15, 0.1127768109, -0.2499376183, 0.2742032497, 2.3543735020, -0.3016533043, 0.6074420214, 0.0000000000, 2.3405385171, -0.3096636062, 0.6265028015, 6.4396927975, -0.0268034432, -0.0486838267, 1475, 1767, 40.1021023872, -88.2268386813, 40.1021336667, -88.2268836667, 0.0000000000, 0.0000000000, 0.0000000000, 0.0000000000, 0.0000000000, 0.0000000000, 0.0000000000, 0.0000000000, 0.0000000000, 0.0000000000, 0.0000000000, 232649, -0.0486838222, 0.5357142687, 0.6047749519, 0.6101090908, 30.0000000000, 0.0000000000, 5.0000000000, 150.5605773926, 148.7143707275, 149.2236785889, 38.4509963989, 15.7578811646, -12.1643668607, -2.2776058321, 0.0000000000, 0.0000000000, 0.0000000119, 0.0000000000
1529450816984, 847984, AUTO, 42, 40.1021051000, -88.2268110000, 15, 0.1127768109, -0.2499376183, 0.2742032497, 2.3543735020, -0.3016533043, 0.5987970829, 0.0000000000, 2.3405385171, -0.3096636062, 0.6265028015, 6.4396927975, -0.0268034432, -0.0493569712, 1475, 1767, 40.1021023872, -88.2268386813, 40.1021336667, -88.2268836667, 0.0000000000, 0.0000000000, 0.0000000000, 0.0000000000, 0.0000000000, 0.0000000000, 0.0000000000, 0.0000000000, 0.0000000000, 0.0000000000, 0.0000000000, 232649, -0.0493569970, 0.5357142687, 0.5992569327, 0.5983372331, 30.0000000000, 0.0000000000, 5.0000000000, 148.7780303955, 148.3960571289, 149.1600036621, 38.4509963989, 15.7578811646, -12.1643668607, -2.2776058321, 0.0000000000, 0.0000000000, 0.0000000085, 0.0000000000
1529450817034, 848034, AUTO, 43, 40.1021051000, -88.2268110000, 15, 0.1127768109, -0.2499376183, 0.2742032497, 2.3543735020, -0.3016533043, 0.5686319470, 0.0000000000, 2.3405385171, -0.3096636062, 0.6265028015, 6.4396927975, -0.0268034432, -0.0493569937, 1475, 1767, 40.1021023872, -88.2268386813, 40.1021336667, -88.2268836667, 0.0000000000, 0.0000000000, 0.0000000000, 0.0000000000, 0.0000000000, 0.0000000000, 0.0000000000, 0.0000000000, 0.0000000000, 0.0000000000, 0.0000000000, 232649, -0.0493569970, 0.5357142687, 0.5630219579, 0.5742419362, 30.0000000000, 0.0000000000, 5.0000000000, 148.0777587891, 147.6957855225, 149.9239501953, 38.4509963989, 15.7578811646, -12.1643668607, -2.2776058321, 0.0000000000, 0.0000000000, 0.0000000021, 0.0000000000
1529450817085, 848085, AUTO, 44, 40.1021051000, -88.2268110000, 15, 0.1127768109, -0.2499376183, 0.2742032497, 2.4031512495, -0.2755039636, 0.5616424680, 0.0000000000, 2.3405385171, -0.3096636062, 0.6265028015, 6.4396927975, -0.0268034432, -0.0493569937, 1475, 1767, 40.1021026223, -88.2268392548, 40.1021336667, -88.2268836667, 0.0000000000, 0.0000000000, 0.0000000000, 0.0000000000, 0.0000000000, 0.0000000000, 0.0000000000, 0.0000000000, 0.0000000000, 0.0000000000, 0.0000000000, 232650, -0.0493569970, 0.5357142687, 0.5551128387, 0.5681720972, 30.0000000000, 0.0000000000, 5.0000000000, 149.7329711914, 149.1600036621, 148.7143707275, 38.4509963989, 15.7578811646, -12.1717448464, -2.2749724036, 0.0000000000, 0.0000000000, 0.0000000131, 0.0000000000
1529450817136, 848136, AUTO, 45, 40.1021051000, -88.2268110000, 15, 0.0646996760, -0.2163455204, 0.2258128257, 2.4464856210, -0.2559521890, 0.5392024517, 0.0000000000, 2.4515872183, -0.2803376503, 0.6097684283, 6.4597767520, -0.0268034432, -0.0562949132, 1471, 1767, 40.1021027982, -88.2268397643, 40.1021336667, -88.2268836667, 0.0000000000, 0.0000000000, 0.0000000000, 0.0000000000, 0.0000000000, 0.0000000000, 0.0000000000, 0.0000000000, 0.0000000000, 0.0000000000, 0.0000000000, 232650, -0.0562949181, 0.5357142687, 0.5295459628, 0.5488590002, 30.0000000000, 0.0000000000, 5.0000000000, 149.8602905273, 149.2236785889, 147.9504394531, 38.4509963989, 15.7684020996, -12.2542455129, -2.2428406643, 0.0000000000, 0.0000000000, 0.0000000032, 0.0000000000
1529450817186, 848186, AUTO, 46, 40.1021051000, -88.2268110000, 15, 0.0646996760, -0.2163455204, 0.2258128257, 2.4464856210, -0.2559521890, 0.5633898377, 0.0000000000, 2.4515872183, -0.2803376503, 0.6097684283, 6.4597767520, -0.0268034432, -0.0710551893, 1464, 1767, 40.1021029233, -88.2268402733, 40.1021336667, -88.2268836667, 0.0000000000, 0.0000000000, 0.0000000000, 0.0000000000, 0.0000000000, 0.0000000000, 0.0000000000, 0.0000000000, 0.0000000000, 0.0000000000, 0.0000000000, 232650, -0.0710551739, 0.5357142687, 0.5380069613, 0.5887727141, 30.0000000000, 0.0000000000, 5.0000000000, 149.0963439941, 148.8417053223, 148.7780303955, 38.4509963989, 15.7684020996, -12.2542455129, -2.2428406643, 0.0000000000, 0.0000000000, 0.0000000379, 0.0000000000
1529450817237, 848237, AUTO, 48, 40.1021051000, -88.2268110000, 16, 0.1152135744, -0.1984060723, 0.2294322062, 2.4897774694, -0.2420342909, 0.5724945068, 0.0000000000, 2.5021011167, -0.2623982022, 0.6077673012, 6.4799765333, -0.0268034432, -0.1000000000, 1450, 1767, 40.1021029233, -88.2268402733, 40.1021336667, -88.2268836667, 0.0000000000, 0.0000000000, 0.0000000000, 0.0000000000, 0.0000000000, 0.0000000000, 0.0000000000, 0.0000000000, 0.0000000000, 0.0000000000, 0.0000000000, 232650, -0.1000000238, 0.5357142687, 0.5335925221, 0.6113965511, 30.0000000000, 0.0000000000, 5.0000000000, 148.7780303955, 149.0326995850, 148.6507263184, 38.4509963989, 15.7684020996, -12.3364914496, -2.2136097510, 0.0000000000, 0.0000000000, 0.0000000059, 0.0000000000
1529450817287, 848287, AUTO, 49, 40.1021051000, -88.2268110000, 16, 0.1152135744, -0.1984060723, 0.2294322062, 2.4897774694, -0.2420342909, 0.5984292626, 0.0000000000, 2.5021011167, -0.2623982022, 0.6077673012, 6.4799765333, -0.0268034432, -0.1000000000, 1450, 1767, 40.1021029233, -88.2268402733, 40.1021336667, -88.2268836667, 0.0000000000, 0.0000000000, 0.0000000000, 0.0000000000, 0.0000000000, 0.0000000000, 0.0000000000, 0.0000000000, 0.0000000000, 0.0000000000, 0.0000000000, 232650, -0.1000000238, 0.5357142687, 0.5508823395, 0.6459761858, 30.0000000000, 0.0000000000, 5.0000000000, 149.0326995850, 148.5870513916, 149.0326995850, 38.4509963989, 15.7684020996, -12.3364914496, -2.2136097510, 0.0000000000, 0.0000000000, 0.0000000065, 0.0000000000
1529450817338, 848338, AUTO, 51, 40.1021051000, -88.2268110000, 16, 0.0017367008, -0.1769713835, 0.1769799048, 2.5334378790, -0.2338058663, 0.6228004694, 0.0000000000, 2.5477500793, -0.2452296554, 0.6082879184, 6.5000503207, -0.0268034432, -0.1000000000, 1450, 1767, 40.1021029973, -88.2268407867, 40.1021336667, -88.2268836667, 0.0000000000, 0.0000000000, 0.0000000000, 0.0000000000, 0.0000000000, 0.0000000000, 0.0000000000, 0.0000000000, 0.0000000000, 0.0000000000, 0.0000000000, 232650, -0.1000000238, 0.5357142687, 0.5683559775, 0.6772449613, 30.0000000000, 0.0000000000, 5.0000000000, 149.4146575928, 148.3960571289, 149.4146575928, 38.4509963989, 15.7684020996, -12.3669984580, -2.2074086478, 0.0000000000, 0.0000000000, 0.0000000019, 0.0000000000
1529450817388, 848388, AUTO, 52, 40.1021051000, -88.2268110000, 16, 0.0017367008, -0.1769713835, 0.1769799048, 2.5334378790, -0.2338058663, 0.6282265186, 0.0000000000, 2.5477500793, -0.2452296554, 0.6082879184, 6.5000503207, -0.0268034432, -0.1000000000, 1450, 1767, 40.1021029973, -88.2268407867, 40.1021346667, -88.2268901667, 0.0000000000, 0.0000000000, 0.0000000000, 0.0000000000, 0.0000000000, 0.0000000000, 0.0000000000, 0.0000000000, 0.0000000000, 0.0000000000, 0.0000000000, 232650, -0.1000000238, 0.5357142687, 0.5681720972, 0.6882809997, 30.0000000000, 0.0000000000, 5.0000000000, 149.0326995850, 148.3960571289, 149.7966308594, 38.4509963989, 15.7684020996, -12.3669984580, -2.2074086478, 0.0000000000, 0.0000000000, 0.0000000092, 0.0000000000
1529450817438, 848438, AUTO, 54, 40.1021051000, -88.2268110000, 16, 0.0494973167, -0.1573925539, 0.1649921222, 2.5943781674, -0.2029492743, 0.6380670071, 0.0000000000, 2.5955106952, -0.2256508258, 0.6096545597, 6.5199618732, -0.0268034432, -0.1000000000, 1450, 1767, 40.1021032748, -88.2268415032, 40.1021346667, -88.2268901667, 0.0000000000, 0.0000000000, 0.0000000000, 0.0000000000, 0.0000000000, 0.0000000000, 0.0000000000, 0.0000000000, 0.0000000000, 0.0000000000, 0.0000000000, 232650, -0.1000000238, 0.5357142687, 0.5582396984, 0.7178943753, 30.0000000000, 0.0000000000, 5.0000000000, 147.6957855225, 149.4783172607, 148.8417053223, 38.4509963989, 15.7684020996, -12.4367647784, -2.1767871756, 0.0000000000, 0.0000000000, 0.0000000066, 0.0000000000
1529450817489, 848489, AUTO, 55, 40.1021051000, -88.2268110000, 17, 0.1022863532, -0.1388908166, 0.1724910345, 2.6570478653, -0.1925710812, 0.6375151873, 0.0000000000, 2.6482997317, -0.2071490885, 0.6096002442, 6.5324699289, -0.0268034432, -0.1000000000, 1450, 1767, 40.1021033682, -88.2268422400, 40.1021346667, -88.2268901667, 0.0000000000, 0.0000000000, 0.0000000000, 0.0000000000, 0.0000000000, 0.0000000000, 0.0000000000, 0.0000000000, 0.0000000000, 0.0000000000, 0.0000000000, 232650, -0.1000000238, 0.5357142687, 0.5495947599, 0.7254356742, 30.0000000000, 0.0000000000, 5.0000000000, 148.7780303955, 150.7515716553, 147.0591583252, 38.4509963989, 15.7684020996, -12.5037954744, -2.1634553625, 0.0000000000, 0.0000000000, 0.0000000011, 0.0000000000
1529450817539, 848539, AUTO, 57, 40.1021051000, -88.2268110000, 17, 0.1022863532, -0.1388908166, 0.1724910345, 2.6570478653, -0.1925710812, 0.6536094546, 0.0000000000, 2.6482997317, -0.2071490885, 0.6096002442, 6.5324699289, -0.0268034432, -0.1000000000, 1450, 1767, 40.1021033682, -88.2268422400, 40.1021346667, -88.2268901667, 0.0000000000, 0.0000000000, 0.0000000000, 0.0000000000, 0.0000000000, 0.0000000000, 0.0000000000, 0.0000000000, 0.0000000000, 0.0000000000, 0.0000000000, 232650, -0.1000000238, 0.5357142687, 0.5670685172, 0.7401503921, 30.0000000000, 0.0000000000, 5.0000000000, 149.4146575928, 150.3059234619, 147.2501525879, 38.9899978638, 15.7684020996, -12.5037954744, -2.1634553625, 0.0000000000, 0.0000000000, 0.0000000512, 0.0000000000
1529450817590, 848590, AUTO, 58, 40.1021051000, -88.2268110000, 17, 0.1022863532, -0.1388908166, 0.1724910345, 2.6570478653, -0.1925710812, 0.6614266634, 0.0000000000, 2.6482997317, -0.2071490885, 0.6096002442, 6.5324699289, -0.0268034432, -0.1000000000, 1450, 1767, 40.1021033682, -88.2268422400, 40.1021346667, -88.2268901667, 0.0000000000, 0.0000000000, 0.0000000000, 0.0000000000, 0.0000000000, 0.0000000000, 0.0000000000, 0.0000000000, 0.0000000000, 0.0000000000, 0.0000000000, 232650, -0.1000000238, 0.5357142687, 0.5663327575, 0.7565205097, 30.0000000000, 0.0000000000, 5.0000000000, 148.7143707275, 149.2236785889, 148.3324127197, 38.9899978638, 15.7684020996, -12.5037954744, -2.1634553625, 0.0000000000, 0.0000000000, 0.0000000645, 0.0000000000
1529450817640, 848640, AUTO, 59, 40.1021051000, -88.2268110000, 17, -0.0033632563, -0.1193339771, 0.1193813620, 2.7164005090, -0.1925896138, 0.6551728845, 0.0000000000, 2.7017759584, -0.1918583910, 0.6102335197, 6.5387934599, -0.0268034432, -0.1000000000, 1450, 1767, 40.1021033680, -88.2268429378, 40.1021346667, -88.2268901667, 0.0000000000, 0.0000000000, 0.0000000000, 0.0000000000, 0.0000000000, 0.0000000000, 0.0000000000, 0.0000000000, 0.0000000000, 0.0000000000, 0.0000000000, 232650, -0.1000000238, 0.5357142687, 0.5534573793, 0.7568883896, 30.0000000000, 0.0000000000, 5.0000000000, 148.8417053223, 148.7143707275, 149.0963439941, 38.4509963989, 15.7684020996, -12.5113840727, -2.1633532129, 0.0000000000, 0.0000000000, 0.0000000109, 0.0000000000
1529450817691, 848691, AUTO, 61, 40.1021051000, -88.2268110000, 17, 0.0509161495, -0.1042345126, 0.1160055511, 2.7684527890, -0.1795056772, 0.6467118859, 0.0000000000, 2.7560553642, -0.1767589265, 0.6107747005, 6.5440741341, -0.0268034432, -0.1000000000, 1450, 1767, 40.1021034857, -88.2268435498, 40.1021346667, -88.2268901667, 0.0000000000, 0.0000000000, 0.0000000000, 0.0000000000, 0.0000000000, 0.0000000000, 0.0000000000, 0.0000000000, 0.0000000000, 0.0000000000, 0.0000000000, 232650, -0.1000000238, 0.5357142687, 0.5389265418, 0.7544972301, 30.0000000000, 0.0000000000, 5.0000000000, 150.0512847900, 148.9690246582, 149.0963439941, 38.4509963989, 15.7684020996, -12.5940312685, -2.1527848462, 0.0000000000, 0.0000000000, 0.0000000024, 0.0000000000
1529450817749, 848749, AUTO, 62, 40.1021051000, -88.2268110000, 17, 0.0509161495, -0.1042345126, 0.1160055511, 2.7684527890, -0.1795056772, 0.6509424448, 0.0000000000, 2.7560553642, -0.1767589265, 0.6107747005, 6.5440741341, -0.0268034432, -0.1000000000, 1450, 1767, 40.1021034857, -88.2268435498, 40.1021346667, -88.2268901667, 0.0000000000, 0.0000000000, 0.0000000000, 0.0000000000, 0.0000000000, 0.0000000000, 0.0000000000, 0.0000000000, 0.0000000000, 0.0000000000, 0.0000000000, 232650, -0.1000000238, 0.5357142687, 0.5551128387, 0.7467719913, 30.0000000000, 0.0000000000, 5.0000000000, 150.6242370605, 147.7594451904, 149.7966308594, 38.9899978638, 15.7684020996, -12.5940312685, -2.1527848462, 0.0000000000, 0.0000000000, 0.0000000311, 0.0000000000
1529450817799, 848799, AUTO, 64, 40.1021051000, -88.2268110000, 18, 0.1092249856, -0.0867066138, 0.1394565680, 2.8300026238, -0.1552281179, 0.6575639844, 0.0000000000, 2.8143642003, -0.1592310277, 0.6101758175, 6.5505329509, -0.0268034432, -0.1000000000, 1450, 1767, 40.1021037040, -88.2268442735, 40.1021346667, -88.2268901667, 0.0000000000, 0.0000000000, 0.0000000000, 0.0000000000, 0.0000000000, 0.0000000000, 0.0000000000, 0.0000000000, 0.0000000000, 0.0000000000, 0.0000000000, 232650, -0.1000000238, 0.5357142687, 0.5558484793, 0.7592794895, 30.0000000000, 0.0000000000, 5.0000000000, 150.1786041260, 147.4411315918, 150.5605773926, 38.4509963989, 15.7684020996, -12.6181955877, -2.1451499447, 0.0000000000, 0.0000000000, 0.0000000017, 0.0000000000
1529450817850, 848850, AUTO, 65, 40.1021051000, -88.2268110000, 18, 0.1092249856, -0.0867066138, 0.1394565680, 2.8300026238, -0.1552281179, 0.6641856432, 0.0000000000, 2.8143642003, -0.1592310277, 0.6101758175, 6.5505329509, -0.0268034432, -0.1000000000, 1450, 1767, 40.1021037040, -88.2268442735, 40.1021346667, -88.2268901667, 0.0000000000, 0.0000000000, 0.0000000000, 0.0000000000, 0.0000000000, 0.0000000000, 0.0000000000, 0.0000000000, 0.0000000000, 0.0000000000, 0.0000000000, 232650, -0.1000000238, 0.5357142687, 0.5580557585, 0.7703155875, 30.0000000000, 0.0000000000, 5.0000000000, 148.7143707275, 148.2687530518, 149.2873382568, 38.4509963989, 15.7684020996, -12.6181955877, -2.1451499447, 0.0000000000, 0.0000000000, 0.0000000119, 0.0000000000
1529450817900, 848900, AUTO, 67, 40.1021051000, -88.2268110000, 18, 0.0095400968, -0.0644022872, 0.0651050539, 2.8911838966, -0.1344531992, 0.6659330130, 0.0000000000, 2.8738051476, -0.1411928431, 0.6120257930, 6.5547591839, -0.0268034432, -0.1000000000, 1450, 1767, 40.1021038908, -88.2268449928, 40.1021346667, -88.2268901667, 0.0000000000, 0.0000000000, 0.0000000000, 0.0000000000, 0.0000000000, 0.0000000000, 0.0000000000, 0.0000000000, 0.0000000000, 0.0000000000, 0.0000000000, 232650, -0.1000000238, 0.5357142687, 0.5586075187, 0.7732585073, 30.0000000000, 0.0000000000, 5.0000000000, 147.8867797852, 148.8417053223, 148.7143707275, 38.4509963989, 15.7684020996, -12.7332689206, -2.1074543743, 0.0000000000, 0.0000000000, 0.0000000049, 0.0000000000
1529450817951, 848951, AUTO, 68, 40.1021051000, -88.2268110000, 18, 0.0095400968, -0.0644022872, 0.0651050539, 2.8911838966, -0.1344531992, 0.6662089229, 0.0000000000, 2.8738051476, -0.1411928431, 0.6120257930, 6.5547591839, -0.0268034432, -0.1000000000, 1450, 1767, 40.1021038908, -88.2268449928, 40.1021346667, -88.2268901667, 0.0000000000, 0.0000000000, 0.0000000000, 0.0000000000, 0.0000000000, 0.0000000000, 0.0000000000, 0.0000000000, 0.0000000000, 0.0000000000, 0.0000000000, 232650, -0.1000000238, 0.5357142687, 0.5576878786, 0.7747299671, 30.0000000000, 0.0000000000, 5.0000000000, 148.5233917236, 149.2873382568, 148.2687530518, 38.4509963989, 15.7684020996, -12.7332689206, -2.1074543743, 0.0000000000, 0.0000000000, 0.0000000143, 0.0000000000
1529450818001, 849001, AUTO, 70, 40.1021051000, -88.2268110000, 18, 0.0095400968, -0.0644022872, 0.0651050539, 2.8911838966, -0.1344531992, 0.6578398943, 0.0000000000, 2.8738051476, -0.1411928431, 0.6120257930, 6.5547591839, -0.0268034432, -0.1000000000, 1450, 1767, 40.1021038908, -88.2268449928, 40.1021346667, -88.2268901667, 0.0000000000, 0.0000000000, 0.0000000000, 0.0000000000, 0.0000000000, 0.0000000000, 0.0000000000, 0.0000000000, 0.0000000000, 0.0000000000, 0.0000000000, 232650, -0.1000000238, 0.5357142687, 0.5586075187, 0.7570723295, 30.0000000000, 0.0000000000, 5.0000000000, 149.0326995850, 149.5419769287, 148.0777587891, 38.4509963989, 15.7684020996, -12.7332689206, -2.1074543743, 0.0000000000, 0.0000000000, 0.0000000020, 0.0000000000
1529450818052, 849052, AUTO, 71, 40.1021051000, -88.2268110000, 18, 0.0668442772, -0.0477707700, 0.0821596242, 2.9379062052, -0.1240379417, 0.6594952941, 0.0000000000, 2.9311093280, -0.1245613259, 0.6156739159, 6.5570338131, -0.0268034432, -0.1000000000, 1450, 1767, 40.1021039845, -88.2268455422, 40.1021346667, -88.2268901667, 0.0000000000, 0.0000000000, 0.0000000000, 0.0000000000, 0.0000000000, 0.0000000000, 0.0000000000, 0.0000000000, 0.0000000000, 0.0000000000, 0.0000000000, 232651, -0.1000000238, 0.5357142687, 0.5600789785, 0.7589116096, 30.0000000000, 0.0000000000, 5.0000000000, 149.8602905273, 149.3509979248, 148.2050781250, 38.4509963989, 15.7684020996, -12.7842867690, -2.0951922366, 0.0000000000, 0.0000000000, 0.0000000014, 0.0000000000
1529450818102, 849102, AUTO, 73, 40.1021051000, -88.2268110000, 18, 0.0668442772, -0.0477707700, 0.0821596242, 2.9379062052, -0.1240379417, 0.6571961641, 0.0000000000, 2.9311093280, -0.1245613259, 0.6156739159, 6.5570338131, -0.0268034432, -0.1000000000, 1450, 1767, 40.1021039845, -88.2268455422, 40.1021346667, -88.2268901667, 0.0000000000, 0.0000000000, 0.0000000000, 0.0000000000, 0.0000000000, 0.0000000000, 0.0000000000, 0.0000000000, 0.0000000000, 0.0000000000, 0.0000000000, 232651, -0.1000000238, 0.5357142687, 0.5589753985, 0.7554168701, 30.0000000000, 0.0000000000, 5.0000000000, 150.7515716553, 149.6056518555, 148.3960571289, 38.4509963989, 15.7785949707, -12.7842867690, -2.0951922366, 0.0000000000, 0.0000000000, 0.0000000404, 0.0000000000
1529450818152, 849152, AUTO, 74, 40.1021051000, -88.2268110000, 18, 0.1249829633, -0.0333564382, 0.1293576170, 3.0025462907, -0.1174218431, 0.6650133133, 0.0000000000, 2.9892480141, -0.1101469941, 0.6189068107, 6.5549761911, -0.0268034432, -0.1000000000, 1450, 1767, 40.1021040440, -88.2268463022, 40.1021346667, -88.2268901667, 0.0000000000, 0.0000000000, 0.0000000000, 0.0000000000, 0.0000000000, 0.0000000000, 0.0000000000, 0.0000000000, 0.0000000000, 0.0000000000, 0.0000000000, 232651, -0.1000000238, 0.5357142687, 0.5630219579, 0.7670047283, 30.0000000000, 0.0000000000, 5.0000000000, 150.4969177246, 149.5419769287, 148.0140991211, 38.4509963989, 15.7785949707, -12.8349212743, -2.0894986256, 0.0000000000, 0.0000000000, 0.0000000027, 0.0000000000
1529450818208, 849208, AUTO, 76, 40.1021051000, -88.2268110000, 19, 0.1249829633, -0.0333564382, 0.1293576170, 3.0025462907, -0.1174218431, 0.6568282843, 0.0000000000, 2.9892480141, -0.1101469941, 0.6189068107, 6.5549761911, -0.0268034432, -0.1000000000, 1450, 1767, 40.1021040440, -88.2268463022, 40.1021346667, -88.2268901667, 0.0000000000, 0.0000000000, 0.0000000000, 0.0000000000, 0.0000000000, 0.0000000000, 0.0000000000, 0.0000000000, 0.0000000000, 0.0000000000, 0.0000000000, 232651, -0.1000000238, 0.5357142687, 0.5427891612, 0.7727066875, 30.0000000000, 0.0000000000, 5.0000000000, 148.1414184570, 148.9690246582, 148.4597320557, 38.4509963989, 15.7785949707, -12.8349212743, -2.0894986256, 0.0000000000, 0.0000000000, 0.0000000071, 0.0000000000
1529450818258, 849258, AUTO, 77, 40.1021051000, -88.2268110000, 19, 0.0264178359, -0.0189460793, 0.0325093213, 3.0719351578, -0.1187005842, 0.6584836841, 0.0000000000, 3.0498087229, -0.1000027772, 0.6229736630, 6.5431710614, -0.0268034432, -0.1000000000, 1450, 1767, 40.1021040325, -88.2268471180, 40.1021346667, -88.2268901667, 0.0000000000, 0.0000000000, 0.0000000000, 0.0000000000, 0.0000000000, 0.0000000000, 0.0000000000, 0.0000000000, 0.0000000000, 0.0000000000, 0.0000000000, 232651, -0.1000000238, 0.5357142687, 0.5442606807, 0.7727066875, 30.0000000000, 0.0000000000, 5.0000000000, 148.5870513916, 148.6507263184, 148.9053649902, 38.4509963989, 15.7785949707, -12.9203741934, -2.0886530675, 0.0000000000, 0.0000000000, 0.0000000009, 0.0000000000
1529450818308, 849308, AUTO, 78, 40.1021051000, -88.2268110000, 20, 0.0869416740, -0.0098664790, 0.0874997262, 3.1245969834, -0.1121771492, 0.6635419130, 0.0000000000, 3.1103325610, -0.0909231769, 0.6267803125, 6.5321168811, -0.0268034432, -0.1000000000, 1450, 1767, 40.1021040912, -88.2268477372, 40.1021346667, -88.2268901667, 0.0000000000, 0.0000000000, 0.0000000000, 0.0000000000, 0.0000000000, 0.0000000000, 0.0000000000, 0.0000000000, 0.0000000000, 0.0000000000, 0.0000000000, 232651, -0.1000000238, 0.5357142687, 0.5556645393, 0.7762014270, 30.0000000000, 0.0000000000, 5.0000000000, 148.5870513916, 147.9504394531, 149.5419769287, 38.4509963989, 15.7785949707, -12.9212151062, -2.0885543901, 0.0000000000, 0.0000000000, 0.0000000267, 0.0000000000
1529450818361, 849361, AUTO, 80, 40.1021051000, -88.2268110000, 20, 0.0869416740, -0.0098664790, 0.0874997262, 3.1245969834, -0.1121771492, 0.6700715423, 0.0000000000, 3.1103325610, -0.0909231769, 0.6267803125, 6.5321168811, -0.0268034432, -0.1000000000, 1450, 1767, 40.1021040912, -88.2268477372, 40.1021346667, -88.2268901667, 0.0000000000, 0.0000000000, 0.0000000000, 0.0000000000, 0.0000000000, 0.0000000000, 0.0000000000, 0.0000000000, 0.0000000000, 0.0000000000, 0.0000000000, 232651, -0.1000000238, 0.5357142687, 0.5628380179, 0.7773050666, 30.0000000000, 0.0000000000, 5.0000000000, 148.7143707275, 148.2050781250, 149.4146575928, 38.9899978638, 15.7785949707, -12.9212151062, -2.0885543901, 0.0000000000, 0.0000000000, 0.0000000240, 0.0000000000
1529450818412, 849412, AUTO, 81, 40.1021051000, -88.2268110000, 20, 0.0869416740, -0.0098664790, 0.0874997262, 3.1722406943, -0.0942932990, 0.6743940115, 0.0000000000, 3.1103325610, -0.0909231769, 0.6267803125, 6.5321168811, -0.0268034432, -0.1000000000, 1450, 1767, 40.1021042520, -88.2268482973, 40.1021366667, -88.2268985000, 0.0000000000, 0.0000000000, 0.0000000000, 0.0000000000, 0.0000000000, 0.0000000000, 0.0000000000, 0.0000000000, 0.0000000000, 0.0000000000, 0.0000000000, 232651, -0.1000000238, 0.5357142687, 0.5630219579, 0.7857660055, 30.0000000000, 0.0000000000, 5.0000000000, 148.7780303955, 148.1414184570, 149.8602905273, 38.9899978638, 15.7785949707, -12.9212151062, -2.0885543901, 0.0000000000, 0.0000000000, 0.0000000073, 0.0000000000
1529450818462, 849462, AUTO, 83, 40.1021051000, -88.2268110000, 20, -0.0137438679, 0.0035852950, 0.0142038109, 3.1722406943, -0.0942932990, 0.6603230238, 0.0000000000, 3.1687728552, -0.0817375449, 0.6317626384, 6.5204136531, -0.0268034432, -0.1000000000, 1450, 1767, 40.1021042520, -88.2268482973, 40.1021366667, -88.2268985000, 0.0000000000, 0.0000000000, 0.0000000000, 0.0000000000, 0.0000000000, 0.0000000000, 0.0000000000, 0.0000000000, 0.0000000000, 0.0000000000, 0.0000000000, 232651, -0.1000000238, 0.5357142687, 0.5587914586, 0.7618545890, 30.0000000000, 0.0000000000, 5.0000000000, 149.2236785889, 147.7594451904, 149.6693115234, 38.4509963989, 15.7785949707, -12.9501440115, -2.0816957818, 0.0000000000, 0.0000000000, 0.0000000065, 0.0000000000
1529450818513, 849513, AUTO, 84, 40.1021051000, -88.2268110000, 20, 0.0474758202, 0.0105646068, 0.0486370684, 3.2360019031, -0.0904014758, 0.6522299051, 0.0000000000, 3.2299925433, -0.0747582331, 0.6332159999, 6.5031206656, -0.0268034432, -0.1000000000, 1450, 1767, 40.1021042870, -88.2268490470, 40.1021366667, -88.2268985000, 0.0000000000, 0.0000000000, 0.0000000000, 0.0000000000, 0.0000000000, 0.0000000000, 0.0000000000, 0.0000000000, 0.0000000000, 0.0000000000, 0.0000000000, 232651, -0.1000000238, 0.5357142687, 0.5369033217, 0.7675565481, 30.0000000000, 0.0000000000, 5.0000000000, 149.2236785889, 148.9053649902, 149.2873382568, 38.4509963989, 15.7785949707, -12.9501440115, -2.0816957818, 0.0000000000, 0.0000000000, 0.0000000072, 0.0000000000
1529450818566, 849566, AUTO, 86, 40.1021051000, -88.2268110000, 20, 0.0474758202, 0.0105646068, 0.0486370684, 3.2360019031, -0.0904014758, 0.6623462439, 0.0000000000, 3.2299925433, -0.0747582331, 0.6332159999, 6.5031206656, -0.0268034432, -0.1000000000, 1450, 1767, 40.1021042870, -88.2268490470, 40.1021366667, -88.2268985000, 0.0000000000, 0.0000000000, 0.0000000000, 0.0000000000, 0.0000000000, 0.0000000000, 0.0000000000, 0.0000000000, 0.0000000000, 0.0000000000, 0.0000000000, 232651, -0.1000000238, 0.5357142687, 0.5519858599, 0.7727066875, 30.0000000000, 0.0000000000, 5.0000000000, 149.0963439941, 149.4146575928, 148.5233917236, 38.4509963989, 15.7785949707, -13.0730422063, -2.0625891658, 0.0000000000, 0.0000000000, 0.0000000139, 0.0000000000
1529450818617, 849617, AUTO, 87, 40.1021051000, -88.2268110000, 20, 0.0474758202, 0.0105646068, 0.0486370684, 3.2889047135, -0.0963318720, 0.6659330130, 0.0000000000, 3.2299925433, -0.0747582331, 0.6332159999, 6.5031206656, -0.0268034432, -0.1000000000, 1450, 1767, 40.1021042337, -88.2268496690, 40.1021366667, -88.2268985000, 0.0000000000, 0.0000000000, 0.0000000000, 0.0000000000, 0.0000000000, 0.0000000000, 0.0000000000, 0.0000000000, 0.0000000000, 0.0000000000, 0.0000000000, 232651, -0.1000000238, 0.5357142687, 0.5569521189, 0.7749138474, 30.0000000000, 0.0000000000, 5.0000000000, 147.8231048584, 149.2873382568, 148.5233917236, 38.4509963989, 15.7785949707, -13.0730422063, -2.0625891658, 0.0000000000, 0.0000000000, 0.0000000075, 0.0000000000
1529450818667, 849667, AUTO, 89, 40.1021051000, -88.2268110000, 21, 0.1077500293, 0.0143611342, 0.1087028564, 3.2889047135, -0.0963318720, 0.6611506939, 0.0000000000, 3.2902667524, -0.0709617057, 0.6396734661, 6.4841988918, -0.0268034432, -0.1000000000, 1450, 1767, 40.1021042337, -88.2268496690, 40.1021366667, -88.2268985000, 0.0000000000, 0.0000000000, 0.0000000000, 0.0000000000, 0.0000000000, 0.0000000000, 0.0000000000, 0.0000000000, 0.0000000000, 0.0000000000, 0.0000000000, 232651, -0.1000000238, 0.5357142687, 0.5470196605, 0.7752817273, 30.0000000000, 0.0000000000, 5.0000000000, 149.0326995850, 149.9876251221, 147.7594451904, 38.4509963989, 15.7785949707, -13.0742475079, -2.0626538732, 0.0000000000, 0.0000000000, 0.0000000054, 0.0000000000
1529450818717, 849717, AUTO, 90, 40.1021051000, -88.2268110000, 21, 0.0055638148, 0.0201973130, 0.0209496417, 3.3360948152, -0.0987410951, 0.6603230238, 0.0000000000, 3.3472063741, -0.0693916689, 0.6472923215, 6.4652284573, -0.0268034432, -0.1000000000, 1450, 1767, 40.1021042120, -88.2268502238, 40.1021366667, -88.2268985000, 0.0000000000, 0.0000000000, 0.0000000000, 0.0000000000, 0.0000000000, 0.0000000000, 0.0000000000, 0.0000000000, 0.0000000000, 0.0000000000, 0.0000000000, 232651, -0.1000000238, 0.5357142687, 0.5586075187, 0.7620385289, 30.0000000000, 0.0000000000, 5.0000000000, 151.1971893311, 149.9876251221, 147.5048065186, 38.4509963989, 15.7785949707, -13.1162125560, -2.0648609367, 0.0000000000, 0.0000000000, 0.0000000056, 0.0000000000
1529450818768, 849768, AUTO, 92, 40.1021051000, -88.2268110000, 21, 0.0055638148, 0.0201973130, 0.0209496417, 3.3360948152, -0.0987410951, 0.6634498835, 0.0000000000, 3.3472063741, -0.0693916689, 0.6472923215, 6.4652284573, -0.0268034432, -0.1000000000, 1450, 1767, 40.1021042120, -88.2268502238, 40.1021366667, -88.2268985000, 0.0000000000, 0.0000000000, 0.0000000000, 0.0000000000, 0.0000000000, 0.0000000000, 0.0000000000, 0.0000000000, 0.0000000000, 0.0000000000, 0.0000000000, 232651, -0.1000000238, 0.5357142687, 0.5637576580, 0.7631421089, 30.0000000000, 0.0000000000, 5.0000000000, 148.5870513916, 149.4146575928, 148.0777587891, 38.9899978638, 15.7785949707, -13.1162125560, -2.0648609367, 0.0000000000, 0.0000000000, 0.0000000105, 0.0000000000
1529450818818, 849818, AUTO, 93, 40.1021051000, -88.2268110000, 21, 0.0629322607, 0.0177114651, 0.0653771018, 3.4011601704, -0.1112319922, 0.6605989933, 0.0000000000, 3.4045748200, -0.0718775168, 0.6535507627, 6.4409820729, -0.0268034432, -0.1000000000, 1450, 1767, 40.1021040997, -88.2268509888, 40.1021366667, -88.2268985000, 0.0000000000, 0.0000000000, 0.0000000000, 0.0000000000, 0.0000000000, 0.0000000000, 0.0000000000, 0.0000000000, 0.0000000000, 0.0000000000, 0.0000000000, 232651, -0.1000000238, 0.5357142687, 0.5549288988, 0.7662690282, 30.0000000000, 0.0000000000, 5.0000000000, 147.0591583252, 149.6056518555, 148.2687530518, 38.9899978638, 15.7785949707, -13.2369713016, -2.0792167150, 0.0000000000, 0.0000000000, 0.0000000016, 0.0000000000
1529450818869, 849869, AUTO, 94, 40.1021051000, -88.2268110000, 21, 0.0629322607, 0.0177114651, 0.0653771018, 3.4481092842, -0.1032259571, 0.6478155255, 0.0000000000, 3.4045748200, -0.0718775168, 0.6535507627, 6.4409820729, -0.0268034432, -0.1000000000, 1450, 1767, 40.1021041717, -88.2268515408, 40.1021366667, -88.2268985000, 0.0000000000, 0.0000000000, 0.0000000000, 0.0000000000, 0.0000000000, 0.0000000000, 0.0000000000, 0.0000000000, 0.0000000000, 0.0000000000, 0.0000000000, 232651, -0.1000000238, 0.5357142687, 0.5411338210, 0.7544972301, 30.0000000000, 0.0000000000, 5.0000000000, 149.4146575928, 149.0326995850, 149.0326995850, 38.9899978638, 15.7785949707, -13.2369713016, -2.0792167150, 0.0000000000, 0.0000000000, 0.0000000206, 0.0000000000
1529450818919, 849919, AUTO, 95, 40.1021051000, -88.2268110000, 22, 0.1164868571, 0.0147318228, 0.1174147115, 3.4481092842, -0.1032259571, 0.6408260465, 0.0000000000, 3.4581294164, -0.0748571591, 0.6560085631, 6.4170629318, -0.0268034432, -0.1000000000, 1450, 1767, 40.1021041717, -88.2268515408, 40.1021366667, -88.2268985000, 0.0000000000, 0.0000000000, 0.0000000000, 0.0000000000, 0.0000000000, 0.0000000000, 0.0000000000, 0.0000000000, 0.0000000000, 0.0000000000, 0.0000000000, 232651, -0.1000000238, 0.5357142687, 0.5334085822, 0.7482435107, 30.0000000000, 0.0000000000, 5.0000000000, 150.3695983887, 148.3960571289, 149.9239501953, 38.4509963989, 15.7785949707, -13.2931384222, -2.0738076800, 0.0000000000, 0.0000000000, 0.0000000072, 0.0000000000
1529450818970, 849970, AUTO, 97, 40.1021051000, -88.2268110000, 22, 0.1164868571, 0.0147318228, 0.1174147115, 3.4481092842, -0.1032259571, 0.6542531848, 0.0000000000, 3.4581294164, -0.0748571591, 0.6560085631, 6.4170629318, -0.0268034432, -0.1000000000, 1450, 1767, 40.1021041717, -88.2268515408, 40.1021366667, -88.2268985000, 0.0000000000, 0.0000000000, 0.0000000000, 0.0000000000, 0.0000000000, 0.0000000000, 0.0000000000, 0.0000000000, 0.0000000000, 0.0000000000, 0.0000000000, 232651, -0.1000000238, 0.5357142687, 0.5486750603, 0.7598313093, 30.0000000000, 0.0000000000, 5.0000000000, 149.6056518555, 147.9504394531, 150.2422637939, 38.4509963989, 15.7785949707, -13.2931384222, -2.0738076800, 0.0000000000, 0.0000000000, 0.0000000078, 0.0000000000
1529450819020, 850020, AUTO, 98, 40.1021051000, -88.2268110000, 22, 0.1164868571, 0.0147318228, 0.1174147115, 3.4481092842, -0.1032259571, 0.6543451548, 0.0000000000, 3.4581294164, -0.0748571591, 0.6560085631, 6.4170629318, -0.0268034432, -0.1000000000, 1450, 1767, 40.1021041717, -88.2268515408, 40.1021366667, -88.2268985000, 0.0000000000, 0.0000000000, 0.0000000000, 0.0000000000, 0.0000000000, 0.0000000000, 0.0000000000, 0.0000000000, 0.0000000000, 0.0000000000, 0.0000000000, 232651, -0.1000000238, 0.5357142687, 0.5512501597, 0.7574402094, 30.0000000000, 0.0000000000, 5.0000000000, 149.2873382568, 148.5870513916, 148.8417053223, 38.4509963989, 15.7785949707, -13.2931384222, -2.0738076800, 0.0000000000, 0.0000000000, 0.0000000020, 0.0000000000
1529450819071, 850071, AUTO, 99, 40.1021051000, -88.2268110000, 22, 0.0094608606, 0.0179448007, 0.0202860483, 3.4965184720, -0.0955720401, 0.6474476457, 0.0000000000, 3.5102292560, -0.0759103232, 0.6573306334, 6.4003833188, -0.0268034432, -0.1000000000, 1450, 1767, 40.1021042405, -88.2268521100, 40.1021366667, -88.2268985000, 0.0000000000, 0.0000000000, 0.0000000000, 0.0000000000, 0.0000000000, 0.0000000000, 0.0000000000, 0.0000000000, 0.0000000000, 0.0000000000, 0.0000000000, 232652, -0.1000000238, 0.5357142687, 0.5367193818, 0.7581759095, 30.0000000000, 0.0000000000, 5.0000000000, 149.1600036621, 148.6507263184, 148.7143707275, 38.4509963989, 15.7785949707, -13.3080967773, -2.0715600318, 0.0000000000, 0.0000000000, 0.0000000016, 0.0000000000
1529450819121, 850121, AUTO, 101, 40.1021051000, -88.2268110000, 22, 0.0618542987, 0.0155327214, 0.0637747576, 3.5514625490, -0.1008537984, 0.6442288160, 0.0000000000, 3.5626226941, -0.0783224025, 0.6579248252, 6.3822244590, -0.0268034432, -0.1000000000, 1450, 1767, 40.1021041930, -88.2268527560, 40.1021366667, -88.2268985000, 0.0000000000, 0.0000000000, 0.0000000000, 0.0000000000, 0.0000000000, 0.0000000000, 0.0000000000, 0.0000000000, 0.0000000000, 0.0000000000, 0.0000000000, 232652, -0.1000000238, 0.5357142687, 0.5354318619, 0.7530257702, 30.0000000000, 0.0000000000, 5.0000000000, 149.0326995850, 148.6507263184, 148.7143707275, 38.4509963989, 15.7890472412, -13.3903475157, -2.0708661964, 0.0000000000, 0.0000000000, 0.0000000018, 0.0000000000
1529450819171, 850171, AUTO, 103, 40.1021051000, -88.2268110000, 22, 0.0618542987, 0.0155327214, 0.0637747576, 3.5514625490, -0.1008537984, 0.6570122242, 0.0000000000, 3.5626226941, -0.0783224025, 0.6579248252, 6.3822244590, -0.0268034432, -0.1000000000, 1450, 1767, 40.1021041930, -88.2268527560, 40.1021366667, -88.2268985000, 0.0000000000, 0.0000000000, 0.0000000000, 0.0000000000, 0.0000000000, 0.0000000000, 0.0000000000, 0.0000000000, 0.0000000000, 0.0000000000, 0.0000000000, 232652, -0.1000000238, 0.5357142687, 0.5580557585, 0.7559686899, 30.0000000000, 0.0000000000, 5.0000000000, 149.7329711914, 148.9690246582, 148.3960571289, 38.9899978638, 15.7890472412, -13.3903475157, -2.0708661964, 0.0000000000, 0.0000000000, 0.0000000073, 0.0000000000
1529450819222, 850222, AUTO, 104, 40.1021051000, -88.2268110000, 23, 0.1145089277, 0.0100876175, 0.1149524013, 3.6068318878, -0.1080629372, 0.6466199160, 0.0000000000, 3.6152773231, -0.0837675064, 0.6577454476, 6.3575076252, -0.0268034432, -0.0882982320, 1455, 1767, 40.1021041282, -88.2268534070, 40.1021366667, -88.2268985000, 0.0000000000, 0.0000000000, 0.0000000000, 0.0000000000, 0.0000000000, 0.0000000000, 0.0000000000, 0.0000000000, 0.0000000000, 0.0000000000, 0.0000000000, 232652, -0.0882982612, 0.5357142687, 0.5348800421, 0.7583597898, 30.0000000000, 0.0000000000, 5.0000000000, 150.0512847900, 149.1600036621, 148.2050781250, 38.4509963989, 15.7890472412, -13.4212271974, -2.0740576942, 0.0000000000, 0.0000000000, 0.0000000020, 0.0000000000
1529450819272, 850272, AUTO, 106, 40.1021051000, -88.2268110000, 23, 0.1145089277, 0.0100876175, 0.1149524013, 3.6711884745, -0.1286525302, 0.6519540548, 0.0000000000, 3.6152773231, -0.0837675064, 0.6577454476, 6.3575076252, -0.0268034432, -0.0882747107, 1455, 1767, 40.1021039430, -88.2268541637, 40.1021366667, -88.2268985000, 0.0000000000, 0.0000000000, 0.0000000000, 0.0000000000, 0.0000000000, 0.0000000000, 0.0000000000, 0.0000000000, 0.0000000000, 0.0000000000, 0.0000000000, 232652, -0.0882747173, 0.5357142687, 0.5483072400, 0.7556008101, 30.0000000000, 0.0000000000, 5.0000000000, 150.6879119873, 148.9053649902, 148.4597320557, 38.4509963989, 15.7890472412, -13.4526357146, -2.0815882181, 0.0000000000, 0.0000000000, 0.0000000063, 0.0000000000
1529450819323, 850323, AUTO, 107, 40.1021051000, -88.2268110000, 23, 0.0096257926, 0.0040473461, 0.0104420732, 3.6711884745, -0.1286525302, 0.6474476457, 0.0000000000, 3.6695200242, -0.0940739198, 0.6580253285, 6.3254793058, -0.0268034432, -0.0571178880, 1471, 1767, 40.1021039430, -88.2268541637, 40.1021366667, -88.2268985000, 0.0000000000, 0.0000000000, 0.0000000000, 0.0000000000, 0.0000000000, 0.0000000000, 0.0000000000, 0.0000000000, 0.0000000000, 0.0000000000, 0.0000000000, 232652, -0.0571178794, 0.5357142687, 0.5609986782, 0.7338966131, 30.0000000000, 0.0000000000, 5.0000000000, 149.9876251221, 149.7329711914, 147.5684661865, 38.4509963989, 15.7890472412, -13.4526357146, -2.0815882181, 0.0000000000, 0.0000000000, 0.0000000056, 0.0000000000
1529450819373, 850373, AUTO, 108, 40.1021051000, -88.2268110000, 23, 0.0651739662, -0.0091037276, 0.0658067149, 3.7302009097, -0.1463881212, 0.6474476457, 0.0000000000, 3.7250681978, -0.1072249935, 0.6578213106, 6.2922941469, -0.0268034432, -0.0574439345, 1471, 1767, 40.1021037835, -88.2268548575, 40.1021366667, -88.2268985000, 0.0000000000, 0.0000000000, 0.0000000000, 0.0000000000, 0.0000000000, 0.0000000000, 0.0000000000, 0.0000000000, 0.0000000000, 0.0000000000, 0.0000000000, 232652, -0.0574439168, 0.5357142687, 0.5643094778, 0.7305858135, 30.0000000000, 0.0000000000, 5.0000000000, 147.8231048584, 149.0963439941, 149.2236785889, 38.4509963989, 15.7890472412, -13.4526357146, -2.0815882181, 0.0000000000, 0.0000000000, 0.0000000100, 0.0000000000
